[
  {
    "_id": {
      "$oid": "5da2632ef2a2337a5fd916d3"
    },
    "name": "Hamzah Islamic Center",
    "url": "mh",
    "website": "http://www.masjidhamzah.com",
    "address": {
      "street": "665 Tidwell Rd",
      "city": "Alpharetta",
      "state": "GA",
      "zip": "30004",
      "longitude": "1.1",
      "latitude": "2.2"
    },
    "active": true,
    "expirationDate": {
      "$date": "2019-01-19T16:42:32.669Z"
    },
    "_class": "com.sc.cdb.data.model.auth.Company"
  },
  {
    "_id": {
      "$oid": "5da272f6f54ab6c94a693edf"
    },
    "name": "Islimic Center Of North Fulton",
    "url": "icnf",
    "website": "http://icnf.org/",
    "address": {
      "street": "1265 Rucker Rd",
      "city": "Alpharetta",
      "state": "GA",
      "zip": "30009",
      "longitude": "1.1",
      "latitude": "2.2"
    },
    "active": true,
    "expirationDate": {
      "$date": "2019-01-19T16:42:32.720Z"
    },
    "_class": "com.sc.cdb.data.model.auth.Company"
  },
  {
    "_id": {
      "$oid": "5e035ae04bdc55545be2bd08"
    },
    "name": "Inactive Company",
    "url": "c1",
    "website": "https://www.google.com",
    "address": {
      "street": "123 Street",
      "city": "Alpharetta",
      "state": "GA",
      "zip": "30004",
      "longitude": "1.1",
      "latitude": "2.2"
    },
    "active": false,
    "expirationDate": {
      "$date": "2019-01-19T16:42:32.720Z"
    },
    "_class": "com.sc.cdb.data.model.auth.Company"
  }
]
